{"results": [{"address_components": [{"long_name": "Enniskerry", "short_name": "Enniskerry", "types": ["locality", "political"]}, {"long_name": "Kilgarran", "short_name": "Kilgarran", "types": ["neighborhood", "political"]}, {"long_name": "County Wicklow", "short_name": "County Wicklow", "types": ["administrative_area_level_1", "political"]}, {"long_name": "Ireland", "short_name": "IE", "types": ["country", "political"]}], "formatted_address": "Kilgarran, Enniskerry, Co. Wicklow, Ireland", "geometry": {"location": {"lat": 53.1937265, "lng": -6.1745464}, "location_type": "GEOMETRIC_CENTER", "viewport": {"northeast": {"lat": 53.19507548029149, "lng": -6.173197419708497}, "southwest": {"lat": 53.19237751970849, "lng": -6.175895380291502}}}, "place_id": "ChIJs8gyg6mnZ0gR15q4umJf1wI", "plus_code": {"compound_code": "5RVG+F5 Kilgarran, County Wicklow, Ireland", "global_code": "9C5M5RVG+F5"}, "types": ["establishment", "point_of_interest", "school"]}], "status": "OK"},{"results": [{"address_components": [{"long_name": "Graiguenamanagh", "short_name": "Graiguenamanagh", "types": ["neighborhood", "political"]}, {"long_name": "Graiguenamanagh", "short_name": "Graiguenamanagh", "types": ["postal_town"]}, {"long_name": "County Kilkenny", "short_name": "County Kilkenny", "types": ["administrative_area_level_1", "political"]}, {"long_name": "Ireland", "short_name": "IE", "types": ["country", "political"]}], "formatted_address": "Graiguenamanagh, Co. Kilkenny, Ireland", "geometry": {"location": {"lat": 52.5445083, "lng": -6.954861}, "location_type": "GEOMETRIC_CENTER", "viewport": {"northeast": {"lat": 52.54585728029149, "lng": -6.953512019708499}, "southwest": {"lat": 52.54315931970849, "lng": -6.956209980291503}}}, "place_id": "ChIJl5Ko1HxMXUgR-eiJwLbK8n8", "types": ["establishment", "point_of_interest", "school"]}], "status": "OK"},{"results": [{"address_components": [{"long_name": "Rathdrum", "short_name": "Rathdrum", "types": ["locality", "political"]}, {"long_name": "Rathdrum", "short_name": "Rathdrum", "types": ["neighborhood", "political"]}, {"long_name": "Rathdrum", "short_name": "Rathdrum", "types": ["postal_town"]}, {"long_name": "County Wicklow", "short_name": "County Wicklow", "types": ["administrative_area_level_1", "political"]}, {"long_name": "Ireland", "short_name": "IE", "types": ["country", "political"]}], "formatted_address": "Rathdrum, Co. Wicklow, Ireland", "geometry": {"location": {"lat": 52.9345045, "lng": -6.2333864}, "location_type": "GEOMETRIC_CENTER", "viewport": {"northeast": {"lat": 52.93585348029149, "lng": -6.232037419708497}, "southwest": {"lat": 52.9331555197085, "lng": -6.234735380291502}}}, "place_id": "ChIJFyReFla-Z0gR59O6KwU8GfA", "plus_code": {"compound_code": "WQM8+RJ Rathdrum, County Wicklow, Ireland", "global_code": "9C4MWQM8+RJ"}, "types": ["establishment", "point_of_interest"]}], "status": "OK"},{"results": [{"address_components": [{"long_name": "H14 X017", "short_name": "H14 X017", "types": ["postal_code"]}, {"long_name": "Killoughter", "short_name": "Killoughter", "types": ["neighborhood", "political"]}, {"long_name": "County Cavan", "short_name": "County Cavan", "types": ["administrative_area_level_1", "political"]}, {"long_name": "Ireland", "short_name": "IE", "types": ["country", "political"]}], "formatted_address": "Killoughter, Co. Cavan, H14 X017, Ireland", "geometry": {"location": {"lat": 54.0855968, "lng": -7.314434299999999}, "location_type": "APPROXIMATE", "viewport": {"northeast": {"lat": 54.0869457802915, "lng": -7.313085319708497}, "southwest": {"lat": 54.0842478197085, "lng": -7.315783280291502}}}, "partial_match": true, "place_id": "ChIJOTQhHf4QXkgRhDwont5symE", "types": ["postal_code"]}], "status": "OK"},{"results": [{"address_components": [{"long_name": "Clashnagarrane", "short_name": "Clashnagarrane", "types": ["neighborhood", "political"]}, {"long_name": "County Kerry", "short_name": "County Kerry", "types": ["administrative_area_level_1", "political"]}, {"long_name": "Ireland", "short_name": "IE", "types": ["country", "political"]}], "formatted_address": "Clashnagarrane, Co. Kerry, Ireland", "geometry": {"bounds": {"northeast": {"lat": 52.1023163, "lng": -9.4736181}, "southwest": {"lat": 52.0928226, "lng": -9.498033999999999}}, "location": {"lat": 52.098022, "lng": -9.4888829}, "location_type": "APPROXIMATE", "viewport": {"northeast": {"lat": 52.1023163, "lng": -9.4736181}, "southwest": {"lat": 52.0928226, "lng": -9.498033999999999}}}, "partial_match": true, "place_id": "ChIJSSXrpwc7RUgRIkrHGajHACY", "types": ["neighborhood", "political"]}, {"address_components": [{"long_name": "V93 HF82", "short_name": "V93 HF82", "types": ["postal_code"]}, {"long_name": "Kilbrean Beg", "short_name": "Kilbrean Beg", "types": ["neighborhood", "political"]}, {"long_name": "County Kerry", "short_name": "County Kerry", "types": ["administrative_area_level_1", "political"]}, {"long_name": "Ireland", "short_name": "IE", "types": ["country", "political"]}], "formatted_address": "Kilbrean Beg, Co. Kerry, V93 HF82, Ireland", "geometry": {"location": {"lat": 52.097473, "lng": -9.4712777}, "location_type": "APPROXIMATE", "viewport": {"northeast": {"lat": 52.0988219802915, "lng": -9.469928719708498}, "southwest": {"lat": 52.0961240197085, "lng": -9.472626680291503}}}, "partial_match": true, "place_id": "ChIJ-eqpeQ87RUgRnxOmFV38_hw", "types": ["postal_code"]}], "status": "OK"},{"results": [{"address_components": [{"long_name": "Station Road", "short_name": "Station Road", "types": ["route"]}, {"long_name": "Manorhamilton", "short_name": "Manorhamilton", "types": ["neighborhood", "political"]}, {"long_name": "Manorhamilton", "short_name": "Manorhamilton", "types": ["locality", "political"]}, {"long_name": "County Leitrim", "short_name": "County Leitrim", "types": ["administrative_area_level_1", "political"]}, {"long_name": "Ireland", "short_name": "IE", "types": ["country", "political"]}, {"long_name": "F91 NP08", "short_name": "F91 NP08", "types": ["postal_code"]}], "formatted_address": "Station Road, Manorhamilton, Co. Leitrim, F91 NP08, Ireland", "geometry": {"location": {"lat": 54.30279059999999, "lng": -8.1693438}, "location_type": "GEOMETRIC_CENTER", "viewport": {"northeast": {"lat": 54.3041395802915, "lng": -8.167994819708499}, "southwest": {"lat": 54.3014416197085, "lng": -8.170692780291503}}}, "place_id": "ChIJJUf8mMTwXkgRdUPiFGgb6xw", "plus_code": {"compound_code": "8R3J+47 Manorhamilton, County Leitrim, Ireland", "global_code": "9C6H8R3J+47"}, "types": ["establishment", "point_of_interest", "school"]}], "status": "OK"},{"results": [{"address_components": [{"long_name": "Tara Hill", "short_name": "Tara Hill", "types": ["establishment", "natural_feature"]}, {"long_name": "Tarahill", "short_name": "Tarahill", "types": ["neighborhood", "political"]}, {"long_name": "County Wexford", "short_name": "County Wexford", "types": ["administrative_area_level_1", "political"]}, {"long_name": "Ireland", "short_name": "IE", "types": ["country", "political"]}], "formatted_address": "Tara Hill, Tarahill, Co. Wexford, Ireland", "geometry": {"location": {"lat": 52.6994444, "lng": -6.217222200000001}, "location_type": "APPROXIMATE", "viewport": {"northeast": {"lat": 52.7062056, "lng": -6.2012148}, "southwest": {"lat": 52.6926822, "lng": -6.2332296}}}, "partial_match": true, "place_id": "ChIJ58E1VUTdZ0gRCCEvfAeTPCY", "plus_code": {"compound_code": "MQXM+Q4 Tarahill, County Wexford, Ireland", "global_code": "9C4MMQXM+Q4"}, "types": ["establishment", "natural_feature"]}, {"address_components": [{"long_name": "Y25 RY86", "short_name": "Y25 RY86", "types": ["postal_code"]}, {"long_name": "Kilcavan Lower", "short_name": "Kilcavan Lower", "types": ["neighborhood", "political"]}, {"long_name": "County Wexford", "short_name": "County Wexford", "types": ["administrative_area_level_1", "political"]}, {"long_name": "Ireland", "short_name": "IE", "types": ["country", "political"]}], "formatted_address": "Kilcavan Lower, Co. Wexford, Y25 RY86, Ireland", "geometry": {"location": {"lat": 52.7064477, "lng": -6.2117413}, "location_type": "APPROXIMATE", "viewport": {"northeast": {"lat": 52.70779668029149, "lng": -6.210392319708498}, "southwest": {"lat": 52.7050987197085, "lng": -6.213090280291502}}}, "partial_match": true, "place_id": "ChIJ_-ZX4EvdZ0gRlqBxuMolWIg", "types": ["postal_code"]}], "status": "OK"},{"results": [{"address_components": [{"long_name": "Boher National School", "short_name": "Boher National School", "types": ["premise"]}, {"long_name": "Ballinlavan", "short_name": "Ballinlavan", "types": ["neighborhood", "political"]}, {"long_name": "Streamstown", "short_name": "Streamstown", "types": ["locality", "political"]}, {"long_name": "Boher", "short_name": "Boher", "types": ["locality", "political"]}, {"long_name": "County Westmeath", "short_name": "County Westmeath", "types": ["administrative_area_level_1", "political"]}, {"long_name": "Ireland", "short_name": "IE", "types": ["country", "political"]}], "formatted_address": "Boher National School, Ballinlavan, Streamstown, Co. Westmeath, Ireland", "geometry": {"location": {"lat": 53.4617671, "lng": -7.5944692}, "location_type": "ROOFTOP", "viewport": {"northeast": {"lat": 53.46311608029149, "lng": -7.593120219708497}, "southwest": {"lat": 53.46041811970849, "lng": -7.595818180291502}}}, "place_id": "ChIJSUU_YKW3XUgRo0HMTmpwAjI", "plus_code": {"compound_code": "FC64+P6 Ballinlavan, County Westmeath, Ireland", "global_code": "9C5JFC64+P6"}, "types": ["premise"]}], "status": "OK"},{"results": [{"address_components": [{"long_name": "Coolbaun", "short_name": "Coolbaun", "types": ["neighborhood", "political"]}, {"long_name": "Nenagh", "short_name": "Nenagh", "types": ["postal_town"]}, {"long_name": "County Tipperary", "short_name": "County Tipperary", "types": ["administrative_area_level_1", "political"]}, {"long_name": "Ireland", "short_name": "IE", "types": ["country", "political"]}], "formatted_address": "Coolbaun, Nenagh, Co. Tipperary, Ireland", "geometry": {"location": {"lat": 53.005909, "lng": -8.269561699999999}, "location_type": "GEOMETRIC_CENTER", "viewport": {"northeast": {"lat": 53.0072579802915, "lng": -8.268212719708497}, "southwest": {"lat": 53.0045600197085, "lng": -8.270910680291502}}}, "partial_match": true, "place_id": "ChIJw8vQVMWOXEgRD7_-jkBWGK4", "plus_code": {"compound_code": "2P4J+95 Mota, Bellview, County Tipperary, Ireland", "global_code": "9C5H2P4J+95"}, "types": ["establishment", "point_of_interest"]}, {"address_components": [{"long_name": "E45 AW72", "short_name": "E45 AW72", "types": ["postal_code"]}, {"long_name": "Kilbeg", "short_name": "Kilbeg", "types": ["neighborhood", "political"]}, {"long_name": "County Tipperary", "short_name": "County Tipperary", "types": ["administrative_area_level_1", "political"]}, {"long_name": "Ireland", "short_name": "IE", "types": ["country", "political"]}], "formatted_address": "Kilbeg, Co. Tipperary, E45 AW72, Ireland", "geometry": {"location": {"lat": 52.9880581, "lng": -8.226338199999999}, "location_type": "APPROXIMATE", "viewport": {"northeast": {"lat": 52.98940708029149, "lng": -8.224989219708498}, "southwest": {"lat": 52.9867091197085, "lng": -8.2276871802915}}}, "partial_match": true, "place_id": "ChIJdbpAyJyOXEgR5QPgHtC2w9I", "types": ["postal_code"]}], "status": "OK"},{"results": [{"address_components": [{"long_name": "A82 V903", "short_name": "A82 V903", "types": ["postal_code"]}, {"long_name": "Tonyduff", "short_name": "Tonyduff", "types": ["neighborhood", "political"]}, {"long_name": "County Cavan", "short_name": "County Cavan", "types": ["administrative_area_level_1", "political"]}, {"long_name": "Ireland", "short_name": "IE", "types": ["country", "political"]}], "formatted_address": "Tonyduff, Co. Cavan, A82 V903, Ireland", "geometry": {"location": {"lat": 53.9594548, "lng": -7.0591317}, "location_type": "APPROXIMATE", "viewport": {"northeast": {"lat": 53.96080378029149, "lng": -7.057782719708499}, "southwest": {"lat": 53.95810581970849, "lng": -7.060480680291502}}}, "partial_match": true, "place_id": "ChIJMephgnwBXkgRxyJzlNai2pY", "types": ["postal_code"]}], "status": "OK"},{"results": [{"address_components": [{"long_name": "F93 WV78", "short_name": "F93 WV78", "types": ["postal_code"]}, {"long_name": "Carricknashane", "short_name": "Carricknashane", "types": ["neighborhood", "political"]}, {"long_name": "County Donegal", "short_name": "County Donegal", "types": ["administrative_area_level_1", "political"]}, {"long_name": "Ireland", "short_name": "IE", "types": ["country", "political"]}], "formatted_address": "Carricknashane, Co. Donegal, F93 WV78, Ireland", "geometry": {"location": {"lat": 54.8008955, "lng": -7.6404944}, "location_type": "APPROXIMATE", "viewport": {"northeast": {"lat": 54.8022444802915, "lng": -7.639145419708497}, "southwest": {"lat": 54.7995465197085, "lng": -7.641843380291502}}}, "partial_match": true, "place_id": "ChIJe7aH1y7HX0gRUNNOcyz1Lk8", "types": ["postal_code"]}], "status": "OK"},{"results": [{"address_components": [{"long_name": "Loughrea", "short_name": "Loughrea", "types": ["locality", "political"]}, {"long_name": "Loughrea", "short_name": "Loughrea", "types": ["neighborhood", "political"]}, {"long_name": "County Galway", "short_name": "County Galway", "types": ["administrative_area_level_1", "political"]}, {"long_name": "Ireland", "short_name": "IE", "types": ["country", "political"]}], "formatted_address": "Loughrea, Co. Galway, Ireland", "geometry": {"location": {"lat": 53.1989136, "lng": -8.5660931}, "location_type": "APPROXIMATE", "viewport": {"northeast": {"lat": 53.2055971, "lng": -8.5500857}, "southwest": {"lat": 53.192229, "lng": -8.5821005}}}, "partial_match": true, "place_id": "ChIJo5MYLwN5XEgRoIcxl6nHAAo", "types": ["locality", "political"]}, {"address_components": [{"long_name": "Galway", "short_name": "Galway", "types": ["locality", "political"]}, {"long_name": "County Galway", "short_name": "County Galway", "types": ["administrative_area_level_1", "political"]}, {"long_name": "Ireland", "short_name": "IE", "types": ["country", "political"]}], "formatted_address": "Galway, Ireland", "geometry": {"bounds": {"northeast": {"lat": 53.31947049999999, "lng": -8.9548057}, "southwest": {"lat": 53.2483525, "lng": -9.1426873}}, "location": {"lat": 53.270668, "lng": -9.0567905}, "location_type": "APPROXIMATE", "viewport": {"northeast": {"lat": 53.31947049999999, "lng": -8.9548057}, "southwest": {"lat": 53.2483525, "lng": -9.1426873}}}, "partial_match": true, "place_id": "ChIJ_1stWpWTW0gRgVJJCkQbKwM", "types": ["locality", "political"]}], "status": "OK"},{"results": [{"address_components": [{"long_name": "Nenagh", "short_name": "Nenagh", "types": ["postal_town"]}, {"long_name": "County Tipperary", "short_name": "County Tipperary", "types": ["administrative_area_level_1", "political"]}, {"long_name": "Ireland", "short_name": "IE", "types": ["country", "political"]}], "formatted_address": "Lorrha, Nenagh, Co. Tipperary, Ireland", "geometry": {"location": {"lat": 53.0888481, "lng": -8.1151056}, "location_type": "GEOMETRIC_CENTER", "viewport": {"northeast": {"lat": 53.0901970802915, "lng": -8.113756619708496}, "southwest": {"lat": 53.0874991197085, "lng": -8.116454580291501}}}, "partial_match": true, "place_id": "ChIJZbQ6MTn1XEgRX6Fw1Pnq5f0", "plus_code": {"compound_code": "3VQM+GX Lorrha, County Tipperary, Ireland", "global_code": "9C5H3VQM+GX"}, "types": ["establishment", "point_of_interest"]}, {"address_components": [{"long_name": "E45 XP58", "short_name": "E45 XP58", "types": ["postal_code"]}, {"long_name": "Redwood", "short_name": "Redwood", "types": ["neighborhood", "political"]}, {"long_name": "County Tipperary", "short_name": "County Tipperary", "types": ["administrative_area_level_1", "political"]}, {"long_name": "Ireland", "short_name": "IE", "types": ["country", "political"]}], "formatted_address": "Redwood, Co. Tipperary, E45 XP58, Ireland", "geometry": {"location": {"lat": 53.127129, "lng": -8.1037527}, "location_type": "APPROXIMATE", "viewport": {"northeast": {"lat": 53.1284779802915, "lng": -8.102403719708496}, "southwest": {"lat": 53.1257800197085, "lng": -8.1051016802915}}}, "partial_match": true, "place_id": "ChIJNRIHoppfXEgRR4PoCgcacos", "types": ["postal_code"]}, {"address_components": [{"long_name": "Nenagh", "short_name": "Nenagh", "types": ["locality", "political"]}, {"long_name": "County Tipperary", "short_name": "County Tipperary", "types": ["administrative_area_level_1", "political"]}, {"long_name": "Ireland", "short_name": "IE", "types": ["country", "political"]}], "formatted_address": "Nenagh, Co. Tipperary, Ireland", "geometry": {"bounds": {"northeast": {"lat": 52.87605, "lng": -8.18663}, "southwest": {"lat": 52.84892, "lng": -8.22823}}, "location": {"lat": 52.8642968, "lng": -8.1975561}, "location_type": "APPROXIMATE", "viewport": {"northeast": {"lat": 52.87605, "lng": -8.18663}, "southwest": {"lat": 52.84892, "lng": -8.22823}}}, "partial_match": true, "place_id": "ChIJn5hu9EaRXEgRABgyl6nHAAo", "types": ["locality", "political"]}], "status": "OK"},{"results": [{"address_components": [{"long_name": "Station Road", "short_name": "Station Rd", "types": ["route"]}, {"long_name": "Dromgownagh", "short_name": "Dromgownagh", "types": ["neighborhood", "political"]}, {"long_name": "Dripsey", "short_name": "Dripsey", "types": ["locality", "political"]}, {"long_name": "County Cork", "short_name": "County Cork", "types": ["administrative_area_level_1", "political"]}, {"long_name": "Ireland", "short_name": "IE", "types": ["country", "political"]}], "formatted_address": "Station Rd, Dromgownagh, Dripsey, Co. Cork, Ireland", "geometry": {"location": {"lat": 51.9139397, "lng": -8.719393}, "location_type": "GEOMETRIC_CENTER", "viewport": {"northeast": {"lat": 51.9152886802915, "lng": -8.718044019708497}, "southwest": {"lat": 51.9125907197085, "lng": -8.720741980291502}}}, "place_id": "ChIJT73-cOHsREgRpo7o4XDY_co", "plus_code": {"compound_code": "W77J+H6 Dromgownagh, County Cork, Ireland", "global_code": "9C3HW77J+H6"}, "types": ["establishment", "point_of_interest", "school"]}], "status": "OK"},{"results": [{"address_components": [{"long_name": "V95 HN76", "short_name": "V95 HN76", "types": ["postal_code"]}, {"long_name": "Cloonanaha", "short_name": "Cloonanaha", "types": ["neighborhood", "political"]}, {"long_name": "County Clare", "short_name": "County Clare", "types": ["administrative_area_level_1", "political"]}, {"long_name": "Ireland", "short_name": "IE", "types": ["country", "political"]}], "formatted_address": "Cloonanaha, Co. Clare, V95 HN76, Ireland", "geometry": {"location": {"lat": 52.8676793, "lng": -9.273437}, "location_type": "APPROXIMATE", "viewport": {"northeast": {"lat": 52.8690282802915, "lng": -9.272088019708498}, "southwest": {"lat": 52.8663303197085, "lng": -9.274785980291503}}}, "partial_match": true, "place_id": "ChIJa9UlkSUFW0gRG0olucP_AXY", "types": ["postal_code"]}, {"address_components": [{"long_name": "Inagh", "short_name": "Inagh", "types": ["locality", "political"]}, {"long_name": "Carrowkeel East", "short_name": "Carrowkeel East", "types": ["neighborhood", "political"]}, {"long_name": "County Clare", "short_name": "County Clare", "types": ["administrative_area_level_1", "political"]}, {"long_name": "Ireland", "short_name": "IE", "types": ["country", "political"]}], "formatted_address": "Carrowkeel East, Inagh, Co. Clare, Ireland", "geometry": {"location": {"lat": 52.8769834, "lng": -9.176764499999999}, "location_type": "APPROXIMATE", "viewport": {"northeast": {"lat": 52.883717, "lng": -9.1607571}, "southwest": {"lat": 52.8702487, "lng": -9.1927719}}}, "partial_match": true, "place_id": "ChIJ35hPY84PW0gRoAAyl6nHAAo", "types": ["locality", "political"]}], "status": "OK"},{"results": [{"address_components": [{"long_name": "Ovens National School", "short_name": "Ovens National School", "types": ["premise"]}, {"long_name": "Knockanemore", "short_name": "Knockanemore", "types": ["neighborhood", "political"]}, {"long_name": "Ovens", "short_name": "Ovens", "types": ["locality", "political"]}, {"long_name": "County Cork", "short_name": "County Cork", "types": ["administrative_area_level_1", "political"]}, {"long_name": "Ireland", "short_name": "IE", "types": ["country", "political"]}], "formatted_address": "Ovens National School, Knockanemore, Ovens, Co. Cork, Ireland", "geometry": {"location": {"lat": 51.8757329, "lng": -8.6662891}, "location_type": "ROOFTOP", "viewport": {"northeast": {"lat": 51.8770818802915, "lng": -8.664940119708499}, "southwest": {"lat": 51.8743839197085, "lng": -8.667638080291503}}}, "place_id": "ChIJ1Wo8YqmSREgRSIFaL-uUMtA", "plus_code": {"compound_code": "V8GM+7F Knockanemore, Grange Manor, County Cork, Ireland", "global_code": "9C3HV8GM+7F"}, "types": ["premise"]}], "status": "OK"},{"results": [{"address_components": [{"long_name": "Donaguile Heights", "short_name": "Donaguile Heights", "types": ["route"]}, {"long_name": "Glebe", "short_name": "Glebe", "types": ["neighborhood", "political"]}, {"long_name": "County Kilkenny", "short_name": "County Kilkenny", "types": ["administrative_area_level_1", "political"]}, {"long_name": "Ireland", "short_name": "IE", "types": ["country", "political"]}], "formatted_address": "Donaguile Heights, Glebe, Co. Kilkenny, Ireland", "geometry": {"bounds": {"northeast": {"lat": 52.8019991, "lng": -7.213746899999999}, "southwest": {"lat": 52.7981081, "lng": -7.2251071}}, "location": {"lat": 52.7987573, "lng": -7.220515}, "location_type": "GEOMETRIC_CENTER", "viewport": {"northeast": {"lat": 52.8019991, "lng": -7.213746899999999}, "southwest": {"lat": 52.7981081, "lng": -7.2251071}}}, "partial_match": true, "place_id": "ChIJn9qBo0g-XUgRchr9ok7ZDfw", "types": ["route"]}], "status": "OK"},{"results": [{"address_components": [{"long_name": "Fairgreen Street", "short_name": "Fairgreen St", "types": ["route"]}, {"long_name": "Naas East", "short_name": "Naas East", "types": ["neighborhood", "political"]}, {"long_name": "Naas", "short_name": "Naas", "types": ["postal_town"]}, {"long_name": "County Kildare", "short_name": "County Kildare", "types": ["administrative_area_level_1", "political"]}, {"long_name": "Ireland", "short_name": "IE", "types": ["country", "political"]}], "formatted_address": "Fairgreen St, Naas East, Naas, Co. Kildare, Ireland", "geometry": {"location": {"lat": 53.2150458, "lng": -6.664548099999999}, "location_type": "GEOMETRIC_CENTER", "viewport": {"northeast": {"lat": 53.2163947802915, "lng": -6.663199119708497}, "southwest": {"lat": 53.2136968197085, "lng": -6.665897080291502}}}, "partial_match": true, "place_id": "ChIJH3y5SqN4Z0gR0b9tt1tFhgU", "plus_code": {"compound_code": "688P+25 Naas, County Kildare, Ireland", "global_code": "9C5M688P+25"}, "types": ["establishment", "point_of_interest", "school"]}], "status": "OK"},{"results": [{"address_components": [{"long_name": "Killymard", "short_name": "Killymard", "types": ["locality", "political"]}, {"long_name": "Gortlosky", "short_name": "Gortlosky", "types": ["neighborhood", "political"]}, {"long_name": "County Donegal", "short_name": "County Donegal", "types": ["administrative_area_level_1", "political"]}, {"long_name": "Ireland", "short_name": "IE", "types": ["country", "political"]}], "formatted_address": "Gortlosky, Killymard, Co. Donegal, Ireland", "geometry": {"location": {"lat": 54.6699581, "lng": -8.103806}, "location_type": "GEOMETRIC_CENTER", "viewport": {"northeast": {"lat": 54.67130708029149, "lng": -8.102457019708497}, "southwest": {"lat": 54.66860911970849, "lng": -8.105154980291502}}}, "place_id": "ChIJTXsOnZgHX0gRc_bC8jq5soU", "plus_code": {"compound_code": "MV9W+XF Gortlosky, County Donegal, Ireland", "global_code": "9C6HMV9W+XF"}, "types": ["establishment", "point_of_interest", "school"]}], "status": "OK"},{"results": [{"address_components": [{"long_name": "Dublin", "short_name": "Dublin", "types": ["locality", "political"]}, {"long_name": "County Dublin", "short_name": "County Dublin", "types": ["administrative_area_level_1", "political"]}, {"long_name": "Ireland", "short_name": "IE", "types": ["country", "political"]}], "formatted_address": "Dublin, Ireland", "geometry": {"bounds": {"northeast": {"lat": 53.42521010000001, "lng": -6.0439235}, "southwest": {"lat": 53.22343009999999, "lng": -6.4474847}}, "location": {"lat": 53.3498053, "lng": -6.2603097}, "location_type": "APPROXIMATE", "viewport": {"northeast": {"lat": 53.42521010000001, "lng": -6.0439235}, "southwest": {"lat": 53.22343009999999, "lng": -6.4474847}}}, "partial_match": true, "place_id": "ChIJL6wn6oAOZ0gRoHExl6nHAAo", "types": ["locality", "political"]}, {"address_components": [{"long_name": "A45 YD60", "short_name": "A45 YD60", "types": ["postal_code"]}, {"long_name": "Oldtown", "short_name": "Oldtown", "types": ["neighborhood", "political"]}, {"long_name": "County Dublin", "short_name": "County Dublin", "types": ["administrative_area_level_1", "political"]}, {"long_name": "Ireland", "short_name": "IE", "types": ["country", "political"]}], "formatted_address": "Oldtown, Co. Dublin, A45 YD60, Ireland", "geometry": {"location": {"lat": 53.5244717, "lng": -6.3185069}, "location_type": "APPROXIMATE", "viewport": {"northeast": {"lat": 53.5258206802915, "lng": -6.317157919708498}, "southwest": {"lat": 53.5231227197085, "lng": -6.319855880291502}}}, "partial_match": true, "place_id": "ChIJuxtd8ywUZ0gR3nYCf3GYNlw", "types": ["postal_code"]}], "status": "OK"},{"results": [{"address_components": [{"long_name": "Rathdrum", "short_name": "Rathdrum", "types": ["locality", "political"]}, {"long_name": "Rathdrum", "short_name": "Rathdrum", "types": ["neighborhood", "political"]}, {"long_name": "Rathdrum", "short_name": "Rathdrum", "types": ["postal_town"]}, {"long_name": "County Wicklow", "short_name": "County Wicklow", "types": ["administrative_area_level_1", "political"]}, {"long_name": "Ireland", "short_name": "IE", "types": ["country", "political"]}], "formatted_address": "Rathdrum, Co. Wicklow, Ireland", "geometry": {"location": {"lat": 52.93231230000001, "lng": -6.231101199999999}, "location_type": "GEOMETRIC_CENTER", "viewport": {"northeast": {"lat": 52.93366128029151, "lng": -6.229752219708497}, "southwest": {"lat": 52.93096331970851, "lng": -6.232450180291502}}}, "place_id": "ChIJFyReFla-Z0gR7nEYuxwtzUw", "types": ["establishment", "point_of_interest"]}], "status": "OK"},{"results": [{"address_components": [{"long_name": "Bellanagare National School", "short_name": "Bellanagare National School", "types": ["premise"]}, {"long_name": "Bellanagare", "short_name": "Bellanagare", "types": ["neighborhood", "political"]}, {"long_name": "Castlerea", "short_name": "Castlerea", "types": ["locality", "political"]}, {"long_name": "County Roscommon", "short_name": "County Roscommon", "types": ["administrative_area_level_1", "political"]}, {"long_name": "Ireland", "short_name": "IE", "types": ["country", "political"]}], "formatted_address": "Bellanagare National School, Bellanagare, Castlerea, Co. Roscommon, Ireland", "geometry": {"location": {"lat": 53.8346909, "lng": -8.3755514}, "location_type": "ROOFTOP", "viewport": {"northeast": {"lat": 53.8360398802915, "lng": -8.3742024197085}, "southwest": {"lat": 53.8333419197085, "lng": -8.376900380291504}}}, "partial_match": true, "place_id": "ChIJK_Mnai2gXkgRj1vfagnlHNQ", "plus_code": {"compound_code": "RJMF+VQ Bellanagare, County Roscommon, Ireland", "global_code": "9C5HRJMF+VQ"}, "types": ["premise"]}], "status": "OK"},{"results": [{"address_components": [{"long_name": "F94 X766", "short_name": "F94 X766", "types": ["postal_code"]}, {"long_name": "Creevy", "short_name": "Creevy", "types": ["neighborhood", "political"]}, {"long_name": "County Donegal", "short_name": "County Donegal", "types": ["administrative_area_level_1", "political"]}, {"long_name": "Ireland", "short_name": "IE", "types": ["country", "political"]}], "formatted_address": "Creevy, Co. Donegal, F94 X766, Ireland", "geometry": {"location": {"lat": 54.5205016, "lng": -8.2269692}, "location_type": "APPROXIMATE", "viewport": {"northeast": {"lat": 54.52185058029149, "lng": -8.225620219708496}, "southwest": {"lat": 54.5191526197085, "lng": -8.2283181802915}}}, "partial_match": true, "place_id": "ChIJ_xKcahoCX0gROKS_0bMsw-w", "types": ["postal_code"]}], "status": "OK"},{"results": [{"address_components": [{"long_name": "Ennistimon", "short_name": "Ennistimon", "types": ["locality", "political"]}, {"long_name": "County Clare", "short_name": "County Clare", "types": ["administrative_area_level_1", "political"]}, {"long_name": "Ireland", "short_name": "IE", "types": ["country", "political"]}], "formatted_address": "Tirnaheen,, Ennistimon, Co. Clare, Ireland", "geometry": {"location": {"lat": 52.9322528, "lng": -9.2292968}, "location_type": "GEOMETRIC_CENTER", "viewport": {"northeast": {"lat": 52.9336017802915, "lng": -9.227947819708497}, "southwest": {"lat": 52.9309038197085, "lng": -9.230645780291502}}}, "partial_match": true, "place_id": "ChIJ7ZfTYFwPW0gRHt2ObHU6QTY", "plus_code": {"compound_code": "WQJC+W7 Teerleheen, County Clare, Ireland", "global_code": "9C4GWQJC+W7"}, "types": ["establishment", "point_of_interest"]}], "status": "OK"},{"results": [{"address_components": [{"long_name": "Crettyard", "short_name": "Crettyard", "types": ["locality", "political"]}, {"long_name": "Crettyard", "short_name": "Crettyard", "types": ["neighborhood", "political"]}, {"long_name": "Crettyard", "short_name": "Crettyard", "types": ["postal_town"]}, {"long_name": "County Laois", "short_name": "County Laois", "types": ["administrative_area_level_1", "political"]}, {"long_name": "Ireland", "short_name": "IE", "types": ["country", "political"]}], "formatted_address": "Crettyard, Co. Laois, Ireland", "geometry": {"location": {"lat": 52.8418541, "lng": -7.127630399999999}, "location_type": "GEOMETRIC_CENTER", "viewport": {"northeast": {"lat": 52.8432030802915, "lng": -7.126281419708497}, "southwest": {"lat": 52.8405051197085, "lng": -7.128979380291502}}}, "place_id": "ChIJ0WUlEphqXUgRR0l45nbfGyA", "types": ["establishment", "point_of_interest", "school"]}], "status": "OK"},{"results": [{"address_components": [{"long_name": "Galway", "short_name": "Galway", "types": ["locality", "political"]}, {"long_name": "County Galway", "short_name": "County Galway", "types": ["administrative_area_level_1", "political"]}, {"long_name": "Ireland", "short_name": "IE", "types": ["country", "political"]}], "formatted_address": "Galway, Ireland", "geometry": {"bounds": {"northeast": {"lat": 53.31947049999999, "lng": -8.9548057}, "southwest": {"lat": 53.2483525, "lng": -9.1426873}}, "location": {"lat": 53.270668, "lng": -9.0567905}, "location_type": "APPROXIMATE", "viewport": {"northeast": {"lat": 53.31947049999999, "lng": -8.9548057}, "southwest": {"lat": 53.2483525, "lng": -9.1426873}}}, "partial_match": true, "place_id": "ChIJ_1stWpWTW0gRgVJJCkQbKwM", "types": ["locality", "political"]}], "status": "OK"},{"results": [{"address_components": [{"long_name": "Murgasty Road", "short_name": "Murgasty Rd", "types": ["route"]}, {"long_name": "Carrownreddy", "short_name": "Carrownreddy", "types": ["neighborhood", "political"]}, {"long_name": "Tipperary", "short_name": "Tipperary", "types": ["locality", "political"]}, {"long_name": "County Tipperary", "short_name": "County Tipperary", "types": ["administrative_area_level_1", "political"]}, {"long_name": "Ireland", "short_name": "IE", "types": ["country", "political"]}], "formatted_address": "Murgasty Rd, Carrownreddy, Tipperary, Ireland", "geometry": {"location": {"lat": 52.4793428, "lng": -8.162509}, "location_type": "GEOMETRIC_CENTER", "viewport": {"northeast": {"lat": 52.4806917802915, "lng": -8.161160019708499}, "southwest": {"lat": 52.4779938197085, "lng": -8.163857980291503}}}, "place_id": "ChIJBzTfpm6yXEgRBxZj1ujHVy4", "plus_code": {"compound_code": "FRHP+PX Carrownreddy, County Tipperary, Ireland", "global_code": "9C4HFRHP+PX"}, "types": ["establishment", "point_of_interest", "school"]}], "status": "OK"},{"results": [{"address_components": [{"long_name": "Clarion Road", "short_name": "Clarion Road", "types": ["route"]}, {"long_name": "Ballytivnan", "short_name": "Ballytivnan", "types": ["neighborhood", "political"]}, {"long_name": "Sligo", "short_name": "Sligo", "types": ["postal_town"]}, {"long_name": "County Sligo", "short_name": "County Sligo", "types": ["administrative_area_level_1", "political"]}, {"long_name": "Ireland", "short_name": "IE", "types": ["country", "political"]}], "formatted_address": "Clarion Road, Ballytivnan, Sligo, Ireland", "geometry": {"location": {"lat": 54.2805501, "lng": -8.4665956}, "location_type": "GEOMETRIC_CENTER", "viewport": {"northeast": {"lat": 54.2818990802915, "lng": -8.465246619708497}, "southwest": {"lat": 54.2792011197085, "lng": -8.467944580291501}}}, "place_id": "ChIJp0IoN0boXkgRFU9ZNWb8DLA", "plus_code": {"compound_code": "7GJM+69 Sligo, County Sligo, Ireland", "global_code": "9C6H7GJM+69"}, "types": ["establishment", "point_of_interest", "school"]}], "status": "OK"},{"results": [{"address_components": [{"long_name": "Haddington Road", "short_name": "Haddington Rd", "types": ["route"]}, {"long_name": "Dublin", "short_name": "Dublin", "types": ["postal_town"]}, {"long_name": "County Dublin", "short_name": "County Dublin", "types": ["administrative_area_level_1", "political"]}, {"long_name": "Ireland", "short_name": "IE", "types": ["country", "political"]}], "formatted_address": "Haddington Rd, Dublin, Ireland", "geometry": {"location": {"lat": 53.3343232, "lng": -6.2410283}, "location_type": "GEOMETRIC_CENTER", "viewport": {"northeast": {"lat": 53.3356721802915, "lng": -6.239679319708498}, "southwest": {"lat": 53.3329742197085, "lng": -6.242377280291502}}}, "place_id": "ChIJVdG4WJUOZ0gR705arifDEMk", "plus_code": {"compound_code": "8QM5+PH Dublin, County Dublin, Ireland", "global_code": "9C5M8QM5+PH"}, "types": ["establishment", "point_of_interest", "school"]}], "status": "OK"},{"results": [{"address_components": [{"long_name": "Galway", "short_name": "Galway", "types": ["locality", "political"]}, {"long_name": "County Galway", "short_name": "County Galway", "types": ["administrative_area_level_1", "political"]}, {"long_name": "Ireland", "short_name": "IE", "types": ["country", "political"]}], "formatted_address": "Galway, Ireland", "geometry": {"bounds": {"northeast": {"lat": 53.31947049999999, "lng": -8.9548057}, "southwest": {"lat": 53.2483525, "lng": -9.1426873}}, "location": {"lat": 53.270668, "lng": -9.0567905}, "location_type": "APPROXIMATE", "viewport": {"northeast": {"lat": 53.31947049999999, "lng": -8.9548057}, "southwest": {"lat": 53.2483525, "lng": -9.1426873}}}, "partial_match": true, "place_id": "ChIJ_1stWpWTW0gRgVJJCkQbKwM", "types": ["locality", "political"]}], "status": "OK"},{"results": [{"address_components": [{"long_name": "Togher", "short_name": "Togher", "types": ["political", "sublocality", "sublocality_level_1"]}, {"long_name": "Dunmanway", "short_name": "Dunmanway", "types": ["postal_town"]}, {"long_name": "County Cork", "short_name": "County Cork", "types": ["administrative_area_level_1", "political"]}, {"long_name": "Ireland", "short_name": "IE", "types": ["country", "political"]}], "formatted_address": "Togher, Dunmanway, Co. Cork, Ireland", "geometry": {"location": {"lat": 51.7676266, "lng": -9.1565595}, "location_type": "GEOMETRIC_CENTER", "viewport": {"northeast": {"lat": 51.7689755802915, "lng": -9.155210519708499}, "southwest": {"lat": 51.7662776197085, "lng": -9.157908480291503}}}, "place_id": "ChIJPwsQjsMDRUgR4DSxNGPGMbU", "plus_code": {"compound_code": "QR9V+39 Togher, Rockmount, County Cork, Ireland", "global_code": "9C3GQR9V+39"}, "types": ["establishment", "point_of_interest", "school"]}], "status": "OK"},{"results": [{"address_components": [{"long_name": "H54 PW84", "short_name": "H54 PW84", "types": ["postal_code"]}, {"long_name": "Townparks (3rd Division)", "short_name": "Townparks (3rd Division)", "types": ["neighborhood", "political"]}, {"long_name": "Tuam", "short_name": "Tuam", "types": ["locality", "political"]}, {"long_name": "County Galway", "short_name": "County Galway", "types": ["administrative_area_level_1", "political"]}, {"long_name": "Ireland", "short_name": "IE", "types": ["country", "political"]}], "formatted_address": "Townparks (3rd Division), Tuam, Co. Galway, H54 PW84, Ireland", "geometry": {"location": {"lat": 53.51230589999999, "lng": -8.8471531}, "location_type": "APPROXIMATE", "viewport": {"northeast": {"lat": 53.5136548802915, "lng": -8.845804119708497}, "southwest": {"lat": 53.5109569197085, "lng": -8.848502080291501}}}, "partial_match": true, "place_id": "ChIJuVC-hbP2W0gRc-3p-saTINI", "types": ["postal_code"]}], "status": "OK"},{"results": [{"address_components": [{"long_name": "F52 W564", "short_name": "F52 W564", "types": ["postal_code"]}, {"long_name": "Aughnacloy", "short_name": "Aughnacloy", "types": ["neighborhood", "political"]}, {"long_name": "County Sligo", "short_name": "County Sligo", "types": ["administrative_area_level_1", "political"]}, {"long_name": "Ireland", "short_name": "IE", "types": ["country", "political"]}], "formatted_address": "Aughnacloy, Co. Sligo, F52 W564, Ireland", "geometry": {"location": {"lat": 54.10105739999999, "lng": -8.2452607}, "location_type": "APPROXIMATE", "viewport": {"northeast": {"lat": 54.1024063802915, "lng": -8.243911719708496}, "southwest": {"lat": 54.0997084197085, "lng": -8.2466096802915}}}, "partial_match": true, "place_id": "ChIJobVBvluSXkgR4QYi8Ejf2Rg", "types": ["postal_code"]}], "status": "OK"},{"results": [{"address_components": [{"long_name": "H91 C967", "short_name": "H91 C967", "types": ["postal_code"]}, {"long_name": "Inisheer", "short_name": "Inisheer", "types": ["neighborhood", "political"]}, {"long_name": "County Galway", "short_name": "County Galway", "types": ["administrative_area_level_1", "political"]}, {"long_name": "Ireland", "short_name": "IE", "types": ["country", "political"]}], "formatted_address": "Inisheer, Co. Galway, H91 C967, Ireland", "geometry": {"location": {"lat": 53.06516509999999, "lng": -9.5158892}, "location_type": "APPROXIMATE", "viewport": {"northeast": {"lat": 53.0665140802915, "lng": -9.514540219708499}, "southwest": {"lat": 53.0638161197085, "lng": -9.517238180291503}}}, "partial_match": true, "place_id": "ChIJz4pbNDCrW0gRbat9BisAvPA", "types": ["postal_code"]}, {"address_components": [{"long_name": "Galway", "short_name": "Galway", "types": ["locality", "political"]}, {"long_name": "County Galway", "short_name": "County Galway", "types": ["administrative_area_level_1", "political"]}, {"long_name": "Ireland", "short_name": "IE", "types": ["country", "political"]}], "formatted_address": "Galway, Ireland", "geometry": {"bounds": {"northeast": {"lat": 53.31947049999999, "lng": -8.9548057}, "southwest": {"lat": 53.2483525, "lng": -9.1426873}}, "location": {"lat": 53.270668, "lng": -9.0567905}, "location_type": "APPROXIMATE", "viewport": {"northeast": {"lat": 53.31947049999999, "lng": -8.9548057}, "southwest": {"lat": 53.2483525, "lng": -9.1426873}}}, "partial_match": true, "place_id": "ChIJ_1stWpWTW0gRgVJJCkQbKwM", "types": ["locality", "political"]}], "status": "OK"},{"results": [{"address_components": [{"long_name": "Mullingar", "short_name": "Mullingar", "types": ["postal_town"]}, {"long_name": "County Westmeath", "short_name": "County Westmeath", "types": ["administrative_area_level_1", "political"]}, {"long_name": "Ireland", "short_name": "IE", "types": ["country", "political"]}], "formatted_address": "Dysart, Mullingar, Co. Westmeath, Ireland", "geometry": {"location": {"lat": 53.4706634, "lng": -7.4611646}, "location_type": "GEOMETRIC_CENTER", "viewport": {"northeast": {"lat": 53.4720123802915, "lng": -7.459815619708498}, "southwest": {"lat": 53.4693144197085, "lng": -7.462513580291502}}}, "place_id": "ChIJIfmv6c64XUgRn5cT_-S64fc", "plus_code": {"compound_code": "FGCQ+7G Rathnamuddagh, County Westmeath, Ireland", "global_code": "9C5JFGCQ+7G"}, "types": ["establishment", "point_of_interest", "school"]}], "status": "OK"},{"results": [{"address_components": [{"long_name": "Ring", "short_name": "Ring", "types": ["postal_town"]}, {"long_name": "Moat", "short_name": "Moat", "types": ["neighborhood", "political"]}, {"long_name": "County Waterford", "short_name": "County Waterford", "types": ["administrative_area_level_1", "political"]}, {"long_name": "Ireland", "short_name": "IE", "types": ["country", "political"]}], "formatted_address": "Moat, Ring, Co. Waterford, Ireland", "geometry": {"location": {"lat": 52.048882, "lng": -7.588744799999999}, "location_type": "GEOMETRIC_CENTER", "viewport": {"northeast": {"lat": 52.0502309802915, "lng": -7.587395819708497}, "southwest": {"lat": 52.0475330197085, "lng": -7.590093780291501}}}, "partial_match": true, "place_id": "ChIJe_x6nOsZQ0gRpLmzsIw3kYs", "plus_code": {"compound_code": "2CX6+HG Moat, County Waterford, Ireland", "global_code": "9C4J2CX6+HG"}, "types": ["establishment", "point_of_interest", "school"]}, {"address_components": [{"long_name": "Ringville", "short_name": "Ringville", "types": ["locality", "political"]}, {"long_name": "Ballynagaul Beg", "short_name": "Ballynagaul Beg", "types": ["neighborhood", "political"]}, {"long_name": "County Waterford", "short_name": "County Waterford", "types": ["administrative_area_level_1", "political"]}, {"long_name": "Ireland", "short_name": "IE", "types": ["country", "political"]}], "formatted_address": "Ballynagaul Beg, Ringville, Co. Waterford, Ireland", "geometry": {"location": {"lat": 52.04689450000001, "lng": -7.571887899999999}, "location_type": "APPROXIMATE", "viewport": {"northeast": {"lat": 52.0537563, "lng": -7.5558805}, "southwest": {"lat": 52.0400316, "lng": -7.5878953}}}, "partial_match": true, "place_id": "ChIJ08tT5ZMZQ0gRYJIxl6nHAAo", "types": ["locality", "political"]}], "status": "OK"},{"results": [{"address_components": [{"long_name": "V94 R234", "short_name": "V94 R234", "types": ["postal_code"]}, {"long_name": "Ballynahinch", "short_name": "Ballynahinch", "types": ["neighborhood", "political"]}, {"long_name": "County Tipperary", "short_name": "County Tipperary", "types": ["administrative_area_level_1", "political"]}, {"long_name": "Ireland", "short_name": "IE", "types": ["country", "political"]}], "formatted_address": "Ballynahinch, Co. Tipperary, V94 R234, Ireland", "geometry": {"location": {"lat": 52.767236, "lng": -8.382112099999999}, "location_type": "APPROXIMATE", "viewport": {"northeast": {"lat": 52.7685849802915, "lng": -8.380763119708496}, "southwest": {"lat": 52.7658870197085, "lng": -8.3834610802915}}}, "partial_match": true, "place_id": "ChIJTdMHv7SYXEgRcBrx3-f90_4", "types": ["postal_code"]}], "status": "OK"},{"results": [{"address_components": [{"long_name": "P36 CP74", "short_name": "P36 CP74", "types": ["postal_code"]}, {"long_name": "Killeagh Gardens", "short_name": "Killeagh Gardens", "types": ["neighborhood", "political"]}, {"long_name": "County Cork", "short_name": "County Cork", "types": ["administrative_area_level_1", "political"]}, {"long_name": "Ireland", "short_name": "IE", "types": ["country", "political"]}], "formatted_address": "Killeagh Gardens, Co. Cork, P36 CP74, Ireland", "geometry": {"location": {"lat": 51.9402838, "lng": -7.9954487}, "location_type": "APPROXIMATE", "viewport": {"northeast": {"lat": 51.94163278029149, "lng": -7.994099719708498}, "southwest": {"lat": 51.9389348197085, "lng": -7.996797680291502}}}, "partial_match": true, "place_id": "ChIJa9t_EcBvQ0gRt-ceNRTFvgY", "types": ["postal_code"]}, {"address_components": [{"long_name": "Cork", "short_name": "Cork", "types": ["locality", "political"]}, {"long_name": "County Cork", "short_name": "County Cork", "types": ["administrative_area_level_1", "political"]}, {"long_name": "Ireland", "short_name": "IE", "types": ["country", "political"]}], "formatted_address": "Cork, Ireland", "geometry": {"bounds": {"northeast": {"lat": 51.93586, "lng": -8.380579899999999}, "southwest": {"lat": 51.8561501, "lng": -8.54552}}, "location": {"lat": 51.8985143, "lng": -8.4756035}, "location_type": "APPROXIMATE", "viewport": {"northeast": {"lat": 51.93586, "lng": -8.380579899999999}, "southwest": {"lat": 51.8561501, "lng": -8.54552}}}, "partial_match": true, "place_id": "ChIJYbm-kQiQREgR0MUxl6nHAAo", "types": ["locality", "political"]}], "status": "OK"},{"results": [{"address_components": [{"long_name": "Kilbehenny National School", "short_name": "Kilbehenny National School", "types": ["premise"]}, {"long_name": "Knockrour", "short_name": "Knockrour", "types": ["neighborhood", "political"]}, {"long_name": "Kilbeheny", "short_name": "Kilbeheny", "types": ["locality", "political"]}, {"long_name": "Mitchelstown", "short_name": "Mitchelstown", "types": ["locality", "political"]}, {"long_name": "County Limerick", "short_name": "County Limerick", "types": ["administrative_area_level_1", "political"]}, {"long_name": "Ireland", "short_name": "IE", "types": ["country", "political"]}], "formatted_address": "Kilbehenny National School, Knockrour, Kilbeheny, Co. Limerick, Ireland", "geometry": {"location": {"lat": 52.3000923, "lng": -8.2174085}, "location_type": "ROOFTOP", "viewport": {"northeast": {"lat": 52.3014412802915, "lng": -8.216059519708498}, "southwest": {"lat": 52.2987433197085, "lng": -8.218757480291503}}}, "place_id": "ChIJr9iMKD1RQ0gRRqNmed43C7Q", "plus_code": {"compound_code": "8Q2M+22 Knockrour, County Limerick, Ireland", "global_code": "9C4H8Q2M+22"}, "types": ["premise"]}], "status": "OK"},{"results": [{"address_components": [{"long_name": "Effin", "short_name": "Effin", "types": ["neighborhood", "political"]}, {"long_name": "Kilmallock", "short_name": "Kilmallock", "types": ["postal_town"]}, {"long_name": "County Limerick", "short_name": "County Limerick", "types": ["administrative_area_level_1", "political"]}, {"long_name": "Ireland", "short_name": "IE", "types": ["country", "political"]}], "formatted_address": "Effin, Kilmallock, Co. Limerick, Ireland", "geometry": {"location": {"lat": 52.3479636, "lng": -8.6078709}, "location_type": "GEOMETRIC_CENTER", "viewport": {"northeast": {"lat": 52.3493125802915, "lng": -8.606521919708499}, "southwest": {"lat": 52.3466146197085, "lng": -8.609219880291503}}}, "place_id": "ChIJ1WlAtOqyREgRaQZJmp9ViNo", "plus_code": {"compound_code": "89XR+5V Newpark, County Limerick, Ireland", "global_code": "9C4H89XR+5V"}, "types": ["establishment", "point_of_interest", "school"]}], "status": "OK"},{"results": [{"address_components": [{"long_name": "Lismire", "short_name": "Lismire", "types": ["neighborhood", "political"]}, {"long_name": "Bawnmore", "short_name": "Bawnmore", "types": ["political", "sublocality", "sublocality_level_1"]}, {"long_name": "County Cork", "short_name": "County Cork", "types": ["administrative_area_level_1", "political"]}, {"long_name": "Ireland", "short_name": "IE", "types": ["country", "political"]}], "formatted_address": "Lismire, Bawnmore, Co. Cork, Ireland", "geometry": {"bounds": {"northeast": {"lat": 52.24413759999999, "lng": -8.938958399999999}, "southwest": {"lat": 52.2255895, "lng": -8.9711359}}, "location": {"lat": 52.23609829999999, "lng": -8.9535699}, "location_type": "APPROXIMATE", "viewport": {"northeast": {"lat": 52.24413759999999, "lng": -8.938958399999999}, "southwest": {"lat": 52.2255895, "lng": -8.9711359}}}, "partial_match": true, "place_id": "ChIJ1dKD0wXPREgRABAyl6nHAAo", "types": ["neighborhood", "political"]}], "status": "OK"},{"results": [{"address_components": [{"long_name": "F12 H2V5", "short_name": "F12 H2V5", "types": ["postal_code"]}, {"long_name": "Currantawy", "short_name": "Currantawy", "types": ["neighborhood", "political"]}, {"long_name": "County Mayo", "short_name": "County Mayo", "types": ["administrative_area_level_1", "political"]}, {"long_name": "Ireland", "short_name": "IE", "types": ["country", "political"]}], "formatted_address": "Currantawy, Co. Mayo, F12 H2V5, Ireland", "geometry": {"location": {"lat": 53.70116609999999, "lng": -9.0790206}, "location_type": "APPROXIMATE", "viewport": {"northeast": {"lat": 53.7025150802915, "lng": -9.077671619708498}, "southwest": {"lat": 53.6998171197085, "lng": -9.080369580291503}}}, "partial_match": true, "place_id": "ChIJgU__wPziW0gRGSJy79A27Xo", "types": ["postal_code"]}], "status": "OK"},{"results": [{"address_components": [{"long_name": "Aughrim", "short_name": "Aughrim", "types": ["locality", "political"]}, {"long_name": "County Wicklow", "short_name": "County Wicklow", "types": ["administrative_area_level_1", "political"]}, {"long_name": "Ireland", "short_name": "IE", "types": ["country", "political"]}], "formatted_address": "Annacurra, Aughrim, Co. Wicklow, Ireland", "geometry": {"location": {"lat": 52.8415642, "lng": -6.3560743}, "location_type": "GEOMETRIC_CENTER", "viewport": {"northeast": {"lat": 52.8429131802915, "lng": -6.354725319708497}, "southwest": {"lat": 52.8402152197085, "lng": -6.357423280291502}}}, "place_id": "ChIJoV2omXHrZ0gRP3QDRJ1o3eI", "plus_code": {"compound_code": "RJRV+JH Killacloran, Tallyho, County Wicklow, Ireland", "global_code": "9C4MRJRV+JH"}, "types": ["establishment", "point_of_interest", "school"]}], "status": "OK"},{"results": [{"address_components": [{"long_name": "Culmullen Church", "short_name": "Culmullen Church", "types": ["premise"]}, {"long_name": "Culmullin", "short_name": "Culmullin", "types": ["neighborhood", "political"]}, {"long_name": "Drumree", "short_name": "Drumree", "types": ["locality", "political"]}, {"long_name": "County Meath", "short_name": "County Meath", "types": ["administrative_area_level_1", "political"]}, {"long_name": "Ireland", "short_name": "IE", "types": ["country", "political"]}], "formatted_address": "Culmullen Church, Culmullin, Drumree, Co. Meath, Ireland", "geometry": {"location": {"lat": 53.4895189, "lng": -6.6066902}, "location_type": "ROOFTOP", "viewport": {"northeast": {"lat": 53.4908678802915, "lng": -6.605341219708498}, "southwest": {"lat": 53.4881699197085, "lng": -6.608039180291502}}}, "place_id": "ChIJAcnK8OloZ0gRXj0FpF45ELE", "plus_code": {"compound_code": "F9QV+R8 Cultromer, County Meath, Ireland", "global_code": "9C5MF9QV+R8"}, "types": ["establishment", "point_of_interest", "school"]}], "status": "OK"},{"results": [{"address_components": [{"long_name": "Ballinlough Road", "short_name": "Ballinlough Rd", "types": ["route"]}, {"long_name": "Ballinlough", "short_name": "Ballinlough", "types": ["neighborhood", "political"]}, {"long_name": "Cork", "short_name": "Cork", "types": ["locality", "political"]}, {"long_name": "County Cork", "short_name": "County Cork", "types": ["administrative_area_level_1", "political"]}, {"long_name": "Ireland", "short_name": "IE", "types": ["country", "political"]}], "formatted_address": "Ballinlough Rd, Ballinlough, Cork, Ireland", "geometry": {"location": {"lat": 51.8898561, "lng": -8.4548174}, "location_type": "GEOMETRIC_CENTER", "viewport": {"northeast": {"lat": 51.8912050802915, "lng": -8.453468419708498}, "southwest": {"lat": 51.8885071197085, "lng": -8.456166380291503}}}, "place_id": "ChIJQWbvewCQREgRodd8yzh3-qY", "plus_code": {"compound_code": "VGQW+W3 Cork, County Cork, Ireland", "global_code": "9C3HVGQW+W3"}, "types": ["establishment", "point_of_interest", "school"]}, {"address_components": [{"long_name": "Ballinlough Road", "short_name": "Ballinlough Rd", "types": ["route"]}, {"long_name": "Ballintemple", "short_name": "Ballintemple", "types": ["neighborhood", "political"]}, {"long_name": "Cork", "short_name": "Cork", "types": ["postal_town"]}, {"long_name": "County Cork", "short_name": "County Cork", "types": ["administrative_area_level_1", "political"]}, {"long_name": "Ireland", "short_name": "IE", "types": ["country", "political"]}], "formatted_address": "Ballinlough Rd, Ballintemple, Cork, Ireland", "geometry": {"location": {"lat": 51.8899663, "lng": -8.4505193}, "location_type": "GEOMETRIC_CENTER", "viewport": {"northeast": {"lat": 51.89131528029149, "lng": -8.449170319708498}, "southwest": {"lat": 51.88861731970849, "lng": -8.451868280291501}}}, "place_id": "ChIJ74lHA6uaREgR2Tuv2UheqjI", "plus_code": {"compound_code": "VGQX+XQ Cork, County Cork, Ireland", "global_code": "9C3HVGQX+XQ"}, "types": ["church", "establishment", "place_of_worship", "point_of_interest"]}], "status": "OK"},{"results": [{"address_components": [{"long_name": "Navan", "short_name": "Navan", "types": ["postal_town"]}, {"long_name": "County Meath", "short_name": "County Meath", "types": ["administrative_area_level_1", "political"]}, {"long_name": "Ireland", "short_name": "IE", "types": ["country", "political"]}], "formatted_address": "Clonmagadden Valley, Navan, Co. Meath, Ireland", "geometry": {"location": {"lat": 53.6691407, "lng": -6.6951372}, "location_type": "GEOMETRIC_CENTER", "viewport": {"northeast": {"lat": 53.6704896802915, "lng": -6.693788219708497}, "southwest": {"lat": 53.6677917197085, "lng": -6.696486180291502}}}, "partial_match": true, "place_id": "ChIJiVH32jBbZ0gRruwdjz-cNig", "plus_code": {"compound_code": "M893+MW Clonmagaddan, County Meath, Ireland", "global_code": "9C5MM893+MW"}, "types": ["establishment", "point_of_interest", "school"]}, {"address_components": [{"long_name": "Upper New Street", "short_name": "Upper New St", "types": ["route"]}, {"long_name": "Kilkenny", "short_name": "Kilkenny", "types": ["locality", "political"]}, {"long_name": "County Kilkenny", "short_name": "County Kilkenny", "types": ["administrative_area_level_1", "political"]}, {"long_name": "Ireland", "short_name": "IE", "types": ["country", "political"]}], "formatted_address": "Upper New St, Kilkenny, Ireland", "geometry": {"bounds": {"northeast": {"lat": 52.64758699999999, "lng": -7.2510254}, "southwest": {"lat": 52.6464453, "lng": -7.252631500000001}}, "location": {"lat": 52.6471379, "lng": -7.252065699999999}, "location_type": "GEOMETRIC_CENTER", "viewport": {"northeast": {"lat": 52.6483651302915, "lng": -7.250479469708496}, "southwest": {"lat": 52.6456671697085, "lng": -7.253177430291501}}}, "partial_match": true, "place_id": "ChIJKSNtTZkwXUgRO0zomYgsq_4", "types": ["route"]}], "status": "OK"},{"results": [{"address_components": [{"long_name": "Readypenny", "short_name": "Readypenny", "types": ["locality", "political"]}, {"long_name": "Townparks", "short_name": "Townparks", "types": ["neighborhood", "political"]}, {"long_name": "Dundalk", "short_name": "Dundalk", "types": ["postal_town"]}, {"long_name": "County Louth", "short_name": "County Louth", "types": ["administrative_area_level_1", "political"]}, {"long_name": "Ireland", "short_name": "IE", "types": ["country", "political"]}], "formatted_address": "Readypenny, Townparks, Dundalk, Co. Louth, Ireland", "geometry": {"location": {"lat": 54.0019493, "lng": -6.404230099999999}, "location_type": "GEOMETRIC_CENTER", "viewport": {"northeast": {"lat": 54.0032982802915, "lng": -6.402881119708497}, "southwest": {"lat": 54.0006003197085, "lng": -6.405579080291502}}}, "place_id": "ChIJD4CyiKfOYEgRTKR7Nbaos5k", "plus_code": {"compound_code": "2H2W+Q8 Dundalk, County Louth, Ireland", "global_code": "9C6M2H2W+Q8"}, "types": ["establishment", "point_of_interest"]}], "status": "OK"},{"results": [{"address_components": [{"long_name": "269", "short_name": "269", "types": ["street_number"]}, {"long_name": "Larkhill Road", "short_name": "Larkhill Rd", "types": ["route"]}, {"long_name": "Whitehall", "short_name": "Whitehall", "types": ["political", "sublocality", "sublocality_level_1"]}, {"long_name": "Dublin 9", "short_name": "Dublin 9", "types": ["postal_town"]}, {"long_name": "County Dublin", "short_name": "County Dublin", "types": ["administrative_area_level_1", "political"]}, {"long_name": "Ireland", "short_name": "IE", "types": ["country", "political"]}], "formatted_address": "269 Larkhill Rd, Whitehall, Dublin 9, Ireland", "geometry": {"location": {"lat": 53.385267, "lng": -6.245115999999999}, "location_type": "ROOFTOP", "viewport": {"northeast": {"lat": 53.3866159802915, "lng": -6.243767019708497}, "southwest": {"lat": 53.3839180197085, "lng": -6.246464980291502}}}, "place_id": "ChIJ56EoNzwOZ0gRLG-hONCGRmk", "plus_code": {"compound_code": "9QP3+4X Dublin, County Dublin, Ireland", "global_code": "9C5M9QP3+4X"}, "types": ["establishment", "point_of_interest", "school"]}], "status": "OK"},{"results": [{"address_components": [{"long_name": "An Coill", "short_name": "An Coill", "types": ["premise"]}, {"long_name": "Cashel South", "short_name": "Cashel South", "types": ["political", "sublocality", "sublocality_level_1"]}, {"long_name": "Achill", "short_name": "Achill", "types": ["locality", "political"]}, {"long_name": "County Mayo", "short_name": "County Mayo", "types": ["administrative_area_level_1", "political"]}, {"long_name": "Ireland", "short_name": "IE", "types": ["country", "political"]}], "formatted_address": "An Coill, Cashel South, Achill, Co. Mayo, Ireland", "geometry": {"location": {"lat": 53.9537596, "lng": -9.969767}, "location_type": "ROOFTOP", "viewport": {"northeast": {"lat": 53.9551085802915, "lng": -9.968418019708498}, "southwest": {"lat": 53.9524106197085, "lng": -9.971115980291502}}}, "partial_match": true, "place_id": "ChIJRZapjkqZWUgRes3c8dU9OiY", "plus_code": {"compound_code": "X23J+G3 Cashel, County Mayo, Ireland", "global_code": "9C5GX23J+G3"}, "types": ["premise"]}, {"address_components": [{"long_name": "F28 VF68", "short_name": "F28 VF68", "types": ["postal_code"]}, {"long_name": "Derrycontoort West", "short_name": "Derrycontoort West", "types": ["neighborhood", "political"]}, {"long_name": "County Mayo", "short_name": "County Mayo", "types": ["administrative_area_level_1", "political"]}, {"long_name": "Ireland", "short_name": "IE", "types": ["country", "political"]}], "formatted_address": "Derrycontoort West, Co. Mayo, F28 VF68, Ireland", "geometry": {"location": {"lat": 53.88395569999999, "lng": -9.4978578}, "location_type": "APPROXIMATE", "viewport": {"northeast": {"lat": 53.88530468029149, "lng": -9.496508819708499}, "southwest": {"lat": 53.8826067197085, "lng": -9.499206780291503}}}, "partial_match": true, "place_id": "ChIJUc9Im2JvWUgRoWPa--bywkE", "types": ["postal_code"]}], "status": "OK"},{"results": [{"address_components": [{"long_name": "Monkstown", "short_name": "Monkstown", "types": ["locality", "political"]}, {"long_name": "Monkstown", "short_name": "Monkstown", "types": ["neighborhood", "political"]}, {"long_name": "Monkstown", "short_name": "Monkstown", "types": ["postal_town"]}, {"long_name": "County Cork", "short_name": "County Cork", "types": ["administrative_area_level_1", "political"]}, {"long_name": "Ireland", "short_name": "IE", "types": ["country", "political"]}], "formatted_address": "Monkstown, Co. Cork, Ireland", "geometry": {"location": {"lat": 51.8496046, "lng": -8.3339535}, "location_type": "GEOMETRIC_CENTER", "viewport": {"northeast": {"lat": 51.8509535802915, "lng": -8.332604519708498}, "southwest": {"lat": 51.8482556197085, "lng": -8.335302480291503}}}, "partial_match": true, "place_id": "ChIJCW5gM3-EREgRopCHSURF5bI", "plus_code": {"compound_code": "RMX8+RC Monkstown, County Cork, Ireland", "global_code": "9C3HRMX8+RC"}, "types": ["establishment", "point_of_interest", "school"]}], "status": "OK"},{"results": [{"address_components": [{"long_name": "Cnoc an Chuillin", "short_name": "Cnoc an Chuillin", "types": ["establishment", "natural_feature"]}, {"long_name": "Capparoe", "short_name": "Capparoe", "types": ["neighborhood", "political"]}, {"long_name": "County Kerry", "short_name": "County Kerry", "types": ["administrative_area_level_1", "political"]}, {"long_name": "Ireland", "short_name": "IE", "types": ["country", "political"]}], "formatted_address": "Cnoc an Chuillin, Capparoe, Co. Kerry, Ireland", "geometry": {"location": {"lat": 51.9901, "lng": -9.713499900000002}, "location_type": "APPROXIMATE", "viewport": {"northeast": {"lat": 51.9969705, "lng": -9.697492500000001}, "southwest": {"lat": 51.98322839999999, "lng": -9.7295073}}}, "partial_match": true, "place_id": "ChIJ0eFQTJBBRUgRtA8bITq-7jQ", "plus_code": {"compound_code": "X7RP+2H Capparoe, County Kerry, Ireland", "global_code": "9C3GX7RP+2H"}, "types": ["establishment", "natural_feature"]}], "status": "OK"},{"results": [{"address_components": [{"long_name": "Farnham Street", "short_name": "Farnham St", "types": ["route"]}, {"long_name": "Abbeyland", "short_name": "Abbeyland", "types": ["neighborhood", "political"]}, {"long_name": "Cavan", "short_name": "Cavan", "types": ["postal_town"]}, {"long_name": "County Cavan", "short_name": "County Cavan", "types": ["administrative_area_level_1", "political"]}, {"long_name": "Ireland", "short_name": "IE", "types": ["country", "political"]}], "formatted_address": "Farnham St, Abbeyland, Cavan, Ireland", "geometry": {"location": {"lat": 53.9926782, "lng": -7.361883700000001}, "location_type": "GEOMETRIC_CENTER", "viewport": {"northeast": {"lat": 53.9940271802915, "lng": -7.360534719708498}, "southwest": {"lat": 53.9913292197085, "lng": -7.363232680291503}}}, "partial_match": true, "place_id": "ChIJZ72RhdINXkgRdH322Y_g7yI", "plus_code": {"compound_code": "XJVQ+36 Cavan, County Cavan, Ireland", "global_code": "9C5JXJVQ+36"}, "types": ["establishment", "point_of_interest"]}], "status": "OK"},{"results": [{"address_components": [{"long_name": "Curraghmore", "short_name": "Curraghmore", "types": ["neighborhood", "political"]}, {"long_name": "Mullingar", "short_name": "Mullingar", "types": ["postal_town"]}, {"long_name": "County Westmeath", "short_name": "County Westmeath", "types": ["administrative_area_level_1", "political"]}, {"long_name": "Ireland", "short_name": "IE", "types": ["country", "political"]}], "formatted_address": "Curraghmore, Mullingar, Co. Westmeath, Ireland", "geometry": {"location": {"lat": 53.5298041, "lng": -7.2908148}, "location_type": "GEOMETRIC_CENTER", "viewport": {"northeast": {"lat": 53.5311530802915, "lng": -7.289465819708497}, "southwest": {"lat": 53.5284551197085, "lng": -7.292163780291502}}}, "place_id": "ChIJtX_u7tzqXUgRwDfUp1zDn-g", "plus_code": {"compound_code": "GPH5+WM Curraghmore, County Westmeath, Ireland", "global_code": "9C5JGPH5+WM"}, "types": ["establishment", "point_of_interest", "school"]}], "status": "OK"},{"results": [{"address_components": [{"long_name": "Dungloe", "short_name": "Dungloe", "types": ["postal_town"]}, {"long_name": "Saltpans", "short_name": "Saltpans", "types": ["neighborhood", "political"]}, {"long_name": "County Donegal", "short_name": "County Donegal", "types": ["administrative_area_level_1", "political"]}, {"long_name": "Ireland", "short_name": "IE", "types": ["country", "political"]}], "formatted_address": "Saltpans, Dungloe, Co. Donegal, Ireland", "geometry": {"location": {"lat": 54.9329719, "lng": -8.4180861}, "location_type": "GEOMETRIC_CENTER", "viewport": {"northeast": {"lat": 54.93432088029149, "lng": -8.416737119708499}, "southwest": {"lat": 54.9316229197085, "lng": -8.419435080291503}}}, "place_id": "ChIJs-3p3idyX0gRGa7bNQ9CfLg", "plus_code": {"compound_code": "WHMJ+5Q Saltpans, County Donegal, Ireland", "global_code": "9C6HWHMJ+5Q"}, "types": ["establishment", "point_of_interest", "school"]}], "status": "OK"},{"results": [{"address_components": [{"long_name": "F52 H280", "short_name": "F52 H280", "types": ["postal_code"]}, {"long_name": "Knocknashee", "short_name": "Knocknashee", "types": ["neighborhood", "political"]}, {"long_name": "County Roscommon", "short_name": "County Roscommon", "types": ["administrative_area_level_1", "political"]}, {"long_name": "Ireland", "short_name": "IE", "types": ["country", "political"]}], "formatted_address": "Knocknashee, Co. Roscommon, F52 H280, Ireland", "geometry": {"location": {"lat": 53.9740115, "lng": -8.2993376}, "location_type": "APPROXIMATE", "viewport": {"northeast": {"lat": 53.9753604802915, "lng": -8.297988619708498}, "southwest": {"lat": 53.9726625197085, "lng": -8.300686580291503}}}, "partial_match": true, "place_id": "ChIJv3hw6leXXkgR5_F2DH7uh7E", "types": ["postal_code"]}], "status": "OK"},{"results": [{"address_components": [{"long_name": "Saint Mullin's", "short_name": "St Mullin's", "types": ["locality", "political"]}, {"long_name": "Carlow", "short_name": "Carlow", "types": ["administrative_area_level_2", "political"]}, {"long_name": "Ireland", "short_name": "IE", "types": ["country", "political"]}], "formatted_address": "Glynn, St Mullin's, Co. Carlow, Ireland", "geometry": {"location": {"lat": 52.5025317, "lng": -6.9069588}, "location_type": "GEOMETRIC_CENTER", "viewport": {"northeast": {"lat": 52.50388068029149, "lng": -6.905609819708498}, "southwest": {"lat": 52.5011827197085, "lng": -6.908307780291502}}}, "place_id": "ChIJSeo_REizQkgRFA0_Y5ss_Go", "plus_code": {"compound_code": "G33V+26 Turra, County Carlow, Ireland", "global_code": "9C4MG33V+26"}, "types": ["establishment", "point_of_interest"]}], "status": "OK"},{"results": [{"address_components": [{"long_name": "Ballinakill", "short_name": "Ballinakill", "types": ["locality", "political"]}, {"long_name": "Dawros More", "short_name": "Dawros More", "types": ["neighborhood", "political"]}, {"long_name": "County Galway", "short_name": "County Galway", "types": ["administrative_area_level_1", "political"]}, {"long_name": "Ireland", "short_name": "IE", "types": ["country", "political"]}], "formatted_address": "Dawros More, Ballinakill, Co. Galway, Ireland", "geometry": {"location": {"lat": 53.55611099999999, "lng": -9.956944}, "location_type": "APPROXIMATE", "viewport": {"northeast": {"lat": 53.5627387, "lng": -9.940936599999999}, "southwest": {"lat": 53.5494822, "lng": -9.9729514}}}, "partial_match": true, "place_id": "ChIJvSRsAZIlWkgRD9ZAUVQhY6o", "types": ["locality", "political"]}, {"address_components": [{"long_name": "Loughrea", "short_name": "Loughrea", "types": ["locality", "political"]}, {"long_name": "Loughrea", "short_name": "Loughrea", "types": ["neighborhood", "political"]}, {"long_name": "County Galway", "short_name": "County Galway", "types": ["administrative_area_level_1", "political"]}, {"long_name": "Ireland", "short_name": "IE", "types": ["country", "political"]}], "formatted_address": "Loughrea, Co. Galway, Ireland", "geometry": {"location": {"lat": 53.1989136, "lng": -8.5660931}, "location_type": "APPROXIMATE", "viewport": {"northeast": {"lat": 53.2055971, "lng": -8.5500857}, "southwest": {"lat": 53.192229, "lng": -8.5821005}}}, "partial_match": true, "place_id": "ChIJo5MYLwN5XEgRoIcxl6nHAAo", "types": ["locality", "political"]}], "status": "OK"},{"results": [{"address_components": [{"long_name": "Western Road", "short_name": "Western Rd", "types": ["route"]}, {"long_name": "Garryshane", "short_name": "Garryshane", "types": ["neighborhood", "political"]}, {"long_name": "Clonmel", "short_name": "Clonmel", "types": ["postal_town"]}, {"long_name": "County Tipperary", "short_name": "County Tipperary", "types": ["administrative_area_level_1", "political"]}, {"long_name": "Ireland", "short_name": "IE", "types": ["country", "political"]}], "formatted_address": "Western Rd, Garryshane, Clonmel, Co. Tipperary, Ireland", "geometry": {"location": {"lat": 52.3532682, "lng": -7.7185647}, "location_type": "GEOMETRIC_CENTER", "viewport": {"northeast": {"lat": 52.3546171802915, "lng": -7.717215719708498}, "southwest": {"lat": 52.3519192197085, "lng": -7.719913680291502}}}, "partial_match": true, "place_id": "ChIJN_Ch3e0xQ0gRk0EjTN-zb28", "types": ["establishment", "point_of_interest"]}], "status": "OK"},{"results": [{"address_components": [{"long_name": "Frankfort Drive", "short_name": "Frankfort Dr", "types": ["route"]}, {"long_name": "County Offaly", "short_name": "County Offaly", "types": ["administrative_area_level_1", "political"]}, {"long_name": "Ireland", "short_name": "IE", "types": ["country", "political"]}], "formatted_address": "Frankfort Dr, Co. Offaly, Ireland", "geometry": {"bounds": {"northeast": {"lat": 52.9308187, "lng": -7.8988784}, "southwest": {"lat": 52.9116803, "lng": -7.925672}}, "location": {"lat": 52.9225484, "lng": -7.919657900000001}, "location_type": "GEOMETRIC_CENTER", "viewport": {"northeast": {"lat": 52.9308187, "lng": -7.8988784}, "southwest": {"lat": 52.9116803, "lng": -7.925672}}}, "partial_match": true, "place_id": "EiFGcmFua2ZvcnQgRHIsIENvLiBPZmZhbHksIElyZWxhbmQiLiosChQKEgk_dN9qre9cSBEGlAFe4Tvv8BIUChIJg-Yn-arvXEgR4P4xl6nHAAo", "types": ["route"]}], "status": "OK"},{"results": [{"address_components": [{"long_name": "P31 WK25", "short_name": "P31 WK25", "types": ["postal_code"]}, {"long_name": "Knocknahilan", "short_name": "Knocknahilan", "types": ["neighborhood", "political"]}, {"long_name": "County Cork", "short_name": "County Cork", "types": ["administrative_area_level_1", "political"]}, {"long_name": "Ireland", "short_name": "IE", "types": ["country", "political"]}], "formatted_address": "Knocknahilan, Co. Cork, P31 WK25, Ireland", "geometry": {"location": {"lat": 51.84010970000001, "lng": -8.7283277}, "location_type": "APPROXIMATE", "viewport": {"northeast": {"lat": 51.84145868029151, "lng": -8.726978719708496}, "southwest": {"lat": 51.83876071970851, "lng": -8.729676680291501}}}, "partial_match": true, "place_id": "ChIJf7nynFvyREgRwqo-K15CE98", "types": ["postal_code"]}], "status": "OK"},{"results": [{"address_components": [{"long_name": "Saint Kierans Place", "short_name": "St Kierans Pl", "types": ["route"]}, {"long_name": "Glebe", "short_name": "Glebe", "types": ["neighborhood", "political"]}, {"long_name": "County Kilkenny", "short_name": "County Kilkenny", "types": ["administrative_area_level_1", "political"]}, {"long_name": "Ireland", "short_name": "IE", "types": ["country", "political"]}], "formatted_address": "St Kierans Pl, Glebe, Co. Kilkenny, Ireland", "geometry": {"bounds": {"northeast": {"lat": 52.7472953, "lng": -7.5520046}, "southwest": {"lat": 52.7467893, "lng": -7.5531269}}, "location": {"lat": 52.7470309, "lng": -7.552539299999999}, "location_type": "GEOMETRIC_CENTER", "viewport": {"northeast": {"lat": 52.74839128029149, "lng": -7.551216769708498}, "southwest": {"lat": 52.7456933197085, "lng": -7.553914730291503}}}, "partial_match": true, "place_id": "ChIJ_a1GpOwgXUgRNhUDFUWuNBk", "types": ["route"]}, {"address_components": [{"long_name": "E41 N820", "short_name": "E41 N820", "types": ["postal_code"]}, {"long_name": "Foulkscourt", "short_name": "Foulkscourt", "types": ["neighborhood", "political"]}, {"long_name": "County Kilkenny", "short_name": "County Kilkenny", "types": ["administrative_area_level_1", "political"]}, {"long_name": "Ireland", "short_name": "IE", "types": ["country", "political"]}], "formatted_address": "Foulkscourt, Co. Kilkenny, E41 N820, Ireland", "geometry": {"location": {"lat": 52.75091579999999, "lng": -7.5607042}, "location_type": "APPROXIMATE", "viewport": {"northeast": {"lat": 52.7522647802915, "lng": -7.559355219708498}, "southwest": {"lat": 52.7495668197085, "lng": -7.562053180291502}}}, "partial_match": true, "place_id": "ChIJgQYJD5IgXUgRReq68_71hCk", "types": ["postal_code"]}], "status": "OK"},{"results": [{"address_components": [{"long_name": "Moyglare Road", "short_name": "Moyglare Rd", "types": ["route"]}, {"long_name": "Maynooth", "short_name": "Maynooth", "types": ["neighborhood", "political"]}, {"long_name": "Maynooth", "short_name": "Maynooth", "types": ["postal_town"]}, {"long_name": "County Kildare", "short_name": "County Kildare", "types": ["administrative_area_level_1", "political"]}, {"long_name": "Ireland", "short_name": "IE", "types": ["country", "political"]}], "formatted_address": "Moyglare Rd, Maynooth, Co. Kildare, Ireland", "geometry": {"location": {"lat": 53.3835054, "lng": -6.595511699999999}, "location_type": "GEOMETRIC_CENTER", "viewport": {"northeast": {"lat": 53.38485438029149, "lng": -6.594162719708497}, "southwest": {"lat": 53.38215641970849, "lng": -6.596860680291502}}}, "place_id": "ChIJ-RPriuFvZ0gRudqCgrrkKHk", "plus_code": {"compound_code": "9CM3+CQ Maynooth, County Kildare, Ireland", "global_code": "9C5M9CM3+CQ"}, "types": ["establishment", "point_of_interest", "school"]}], "status": "OK"},{"results": [{"address_components": [{"long_name": "V31 F702", "short_name": "V31 F702", "types": ["postal_code"]}, {"long_name": "Gurteennacloona", "short_name": "Gurteennacloona", "types": ["neighborhood", "political"]}, {"long_name": "County Kerry", "short_name": "County Kerry", "types": ["administrative_area_level_1", "political"]}, {"long_name": "Ireland", "short_name": "IE", "types": ["country", "political"]}], "formatted_address": "Gurteennacloona, Co. Kerry, V31 F702, Ireland", "geometry": {"location": {"lat": 52.5237609, "lng": -9.414671199999999}, "location_type": "APPROXIMATE", "viewport": {"northeast": {"lat": 52.5251098802915, "lng": -9.413322219708496}, "southwest": {"lat": 52.5224119197085, "lng": -9.4160201802915}}}, "partial_match": true, "place_id": "ChIJP8oytbnZWkgRRNu38OxoxoU", "types": ["postal_code"]}], "status": "OK"},{"results": [{"address_components": [{"long_name": "Ballygunner", "short_name": "Ballygunner", "types": ["political", "sublocality", "sublocality_level_1"]}, {"long_name": "Waterford", "short_name": "Waterford", "types": ["locality", "political"]}, {"long_name": "County Waterford", "short_name": "County Waterford", "types": ["administrative_area_level_1", "political"]}, {"long_name": "Ireland", "short_name": "IE", "types": ["country", "political"]}], "formatted_address": "Ballygunner, Waterford, Ireland", "geometry": {"location": {"lat": 52.2257244, "lng": -7.064663299999999}, "location_type": "GEOMETRIC_CENTER", "viewport": {"northeast": {"lat": 52.2270733802915, "lng": -7.063314319708497}, "southwest": {"lat": 52.2243754197085, "lng": -7.066012280291502}}}, "place_id": "ChIJU5cnly_BQkgRIhAyHOMWs7A", "plus_code": {"compound_code": "6WGP+74 Waterford, County Waterford, Ireland", "global_code": "9C4J6WGP+74"}, "types": ["establishment", "point_of_interest", "school"]}], "status": "OK"},{"results": [{"address_components": [{"long_name": "Strokestown", "short_name": "Strokestown", "types": ["locality", "political"]}, {"long_name": "Farnbeg", "short_name": "Farnbeg", "types": ["neighborhood", "political"]}, {"long_name": "Strokestown", "short_name": "Strokestown", "types": ["postal_town"]}, {"long_name": "County Roscommon", "short_name": "County Roscommon", "types": ["administrative_area_level_1", "political"]}, {"long_name": "Ireland", "short_name": "IE", "types": ["country", "political"]}], "formatted_address": "Strokestown, Farnbeg, Strokestown, Co. Roscommon, Ireland", "geometry": {"location": {"lat": 53.7758666, "lng": -8.1035319}, "location_type": "GEOMETRIC_CENTER", "viewport": {"northeast": {"lat": 53.7772155802915, "lng": -8.102182919708499}, "southwest": {"lat": 53.7745176197085, "lng": -8.104880880291503}}}, "partial_match": true, "place_id": "ChIJI1FiqHkoXEgRIciuNzEbbjo", "types": ["establishment", "point_of_interest"]}], "status": "OK"},{"results": [{"address_components": [{"long_name": "Y25 Y825", "short_name": "Y25 Y825", "types": ["postal_code"]}, {"long_name": "Island Upper", "short_name": "Island Upper", "types": ["neighborhood", "political"]}, {"long_name": "County Wexford", "short_name": "County Wexford", "types": ["administrative_area_level_1", "political"]}, {"long_name": "Ireland", "short_name": "IE", "types": ["country", "political"]}], "formatted_address": "Island Upper, Co. Wexford, Y25 Y825, Ireland", "geometry": {"location": {"lat": 52.6793922, "lng": -6.3930666}, "location_type": "APPROXIMATE", "viewport": {"northeast": {"lat": 52.68074118029149, "lng": -6.391717619708498}, "southwest": {"lat": 52.6780432197085, "lng": -6.394415580291502}}}, "partial_match": true, "place_id": "ChIJbRCQoArlZ0gRDKA5HTHPV50", "types": ["postal_code"]}], "status": "OK"},